[
  {
    "id": "ist-eczane-1",
    "name": "Kadıköy Örnek Nöbetçi Eczanesi",
    "category": "pharmacy",
    "city": "İstanbul",
    "district": "Kadıköy",
    "address": "Caferağa Mahallesi, Kadıköy, İstanbul",
    "phone": "0212 000 00 01",
    "latitude": 40.9905,
    "longitude": 29.0288,
    "dutyDate": "MVP örnek kaydı",
    "sourceName": "Örnek veri — resmi kaynaktan doğrulayın",
    "sourceUrl": "https://www.turkiye.gov.tr/",
    "lastUpdated": "2026-07-06T06:00:00.000Z"
  },
  {
    "id": "ist-hastane-1",
    "name": "İstanbul Eğitim ve Araştırma Hastanesi Acil",
    "category": "hospital",
    "city": "İstanbul",
    "district": "Fatih",
    "address": "Kasap İlyas Mahallesi, Fatih, İstanbul",
    "phone": "182",
    "latitude": 41.0047,
    "longitude": 28.9396,
    "dutyDate": "7/24 acil servis",
    "sourceName": "Sağlık Bakanlığı",
    "sourceUrl": "https://www.saglik.gov.tr/",
    "lastUpdated": "2026-07-06T06:00:00.000Z"
  },
  {
    "id": "ank-noter-1",
    "name": "Çankaya Örnek Nöbetçi Noteri",
    "category": "notary",
    "city": "Ankara",
    "district": "Çankaya",
    "address": "Kızılay Mahallesi, Çankaya, Ankara",
    "phone": "0312 000 00 02",
    "latitude": 39.9208,
    "longitude": 32.8541,
    "dutyDate": "MVP örnek kaydı",
    "sourceName": "Örnek veri — TNB üzerinden doğrulayın",
    "sourceUrl": "https://www.tnb.org.tr/",
    "lastUpdated": "2026-07-06T06:00:00.000Z"
  },
  {
    "id": "ank-acil-1",
    "name": "Ankara İtfaiyesi Merkez İstasyonu",
    "category": "emergency",
    "city": "Ankara",
    "district": "Altındağ",
    "address": "Altındağ, Ankara",
    "phone": "112",
    "latitude": 39.9537,
    "longitude": 32.8676,
    "dutyDate": "7/24 acil hizmet",
    "sourceName": "Ankara Büyükşehir Belediyesi",
    "sourceUrl": "https://www.ankara.bel.tr/",
    "lastUpdated": "2026-07-06T06:00:00.000Z"
  },
  {
    "id": "izm-eczane-1",
    "name": "Konak Örnek Nöbetçi Eczanesi",
    "category": "pharmacy",
    "city": "İzmir",
    "district": "Konak",
    "address": "Alsancak Mahallesi, Konak, İzmir",
    "phone": "0232 000 00 03",
    "latitude": 38.4368,
    "longitude": 27.1446,
    "dutyDate": "MVP örnek kaydı",
    "sourceName": "Örnek veri — resmi kaynaktan doğrulayın",
    "sourceUrl": "https://www.turkiye.gov.tr/",
    "lastUpdated": "2026-07-06T06:00:00.000Z"
  },
  {
    "id": "izm-belediye-1",
    "name": "İZSU Su Arıza Hizmeti",
    "category": "municipal",
    "city": "İzmir",
    "district": "Konak",
    "address": "Cumhuriyet Bulvarı, Konak, İzmir",
    "phone": "185",
    "latitude": 38.4189,
    "longitude": 27.1287,
    "dutyDate": "7/24 çağrı hizmeti",
    "sourceName": "İZSU",
    "sourceUrl": "https://www.izsu.gov.tr/",
    "lastUpdated": "2026-07-06T06:00:00.000Z"
  },
  {
    "id": "bur-hastane-1",
    "name": "Bursa Şehir Hastanesi Acil",
    "category": "hospital",
    "city": "Bursa",
    "district": "Nilüfer",
    "address": "Doğanköy Mahallesi, Nilüfer, Bursa",
    "phone": "182",
    "latitude": 40.2193,
    "longitude": 28.8484,
    "dutyDate": "7/24 acil servis",
    "sourceName": "Sağlık Bakanlığı",
    "sourceUrl": "https://www.saglik.gov.tr/",
    "lastUpdated": "2026-07-06T06:00:00.000Z"
  },
  {
    "id": "bur-acil-1",
    "name": "Bursa AFAD İl Müdürlüğü",
    "category": "emergency",
    "city": "Bursa",
    "district": "Osmangazi",
    "address": "Osmangazi, Bursa",
    "phone": "112",
    "latitude": 40.195,
    "longitude": 29.06,
    "dutyDate": "7/24 acil koordinasyon",
    "sourceName": "AFAD",
    "sourceUrl": "https://www.afad.gov.tr/",
    "lastUpdated": "2026-07-06T06:00:00.000Z"
  },
  {
    "id": "ant-eczane-1",
    "name": "Muratpaşa Örnek Nöbetçi Eczanesi",
    "category": "pharmacy",
    "city": "Antalya",
    "district": "Muratpaşa",
    "address": "Muratpaşa, Antalya",
    "phone": "0242 000 00 04",
    "latitude": 36.8841,
    "longitude": 30.7056,
    "dutyDate": "MVP örnek kaydı",
    "sourceName": "Örnek veri — resmi kaynaktan doğrulayın",
    "sourceUrl": "https://www.turkiye.gov.tr/",
    "lastUpdated": "2026-07-06T06:00:00.000Z"
  },
  {
    "id": "ant-belediye-1",
    "name": "Antalya Su ve Atıksu Arıza",
    "category": "municipal",
    "city": "Antalya",
    "district": "Muratpaşa",
    "address": "Muratpaşa, Antalya",
    "phone": "185",
    "latitude": 36.8903,
    "longitude": 30.7034,
    "dutyDate": "7/24 çağrı hizmeti",
    "sourceName": "Antalya Büyükşehir Belediyesi",
    "sourceUrl": "https://www.antalya.bel.tr/",
    "lastUpdated": "2026-07-06T06:00:00.000Z"
  },
  {
    "id": "kon-noter-1",
    "name": "Selçuklu Örnek Nöbetçi Noteri",
    "category": "notary",
    "city": "Konya",
    "district": "Selçuklu",
    "address": "Selçuklu, Konya",
    "phone": "0332 000 00 05",
    "latitude": 37.8944,
    "longitude": 32.4932,
    "dutyDate": "MVP örnek kaydı",
    "sourceName": "Örnek veri — TNB üzerinden doğrulayın",
    "sourceUrl": "https://www.tnb.org.tr/",
    "lastUpdated": "2026-07-06T06:00:00.000Z"
  },
  {
    "id": "kon-hastane-1",
    "name": "Konya Şehir Hastanesi Acil",
    "category": "hospital",
    "city": "Konya",
    "district": "Karatay",
    "address": "Akabe Mahallesi, Karatay, Konya",
    "phone": "182",
    "latitude": 37.8709,
    "longitude": 32.5576,
    "dutyDate": "7/24 acil servis",
    "sourceName": "Sağlık Bakanlığı",
    "sourceUrl": "https://www.saglik.gov.tr/",
    "lastUpdated": "2026-07-06T06:00:00.000Z"
  },
  {
    "id": "gaz-eczane-1",
    "name": "Şahinbey Örnek Nöbetçi Eczanesi",
    "category": "pharmacy",
    "city": "Gaziantep",
    "district": "Şahinbey",
    "address": "Şahinbey, Gaziantep",
    "phone": "0342 000 00 06",
    "latitude": 37.0662,
    "longitude": 37.3833,
    "dutyDate": "MVP örnek kaydı",
    "sourceName": "Örnek veri — resmi kaynaktan doğrulayın",
    "sourceUrl": "https://www.turkiye.gov.tr/",
    "lastUpdated": "2026-07-06T06:00:00.000Z"
  },
  {
    "id": "gaz-acil-1",
    "name": "Gaziantep Jandarma İl Komutanlığı",
    "category": "emergency",
    "city": "Gaziantep",
    "district": "Şehitkamil",
    "address": "Şehitkamil, Gaziantep",
    "phone": "112",
    "latitude": 37.075,
    "longitude": 37.376,
    "dutyDate": "7/24 acil hizmet",
    "sourceName": "Jandarma Genel Komutanlığı",
    "sourceUrl": "https://www.jandarma.gov.tr/",
    "lastUpdated": "2026-07-06T06:00:00.000Z"
  },
  {
    "id": "tra-hastane-1",
    "name": "Kanuni Eğitim ve Araştırma Hastanesi Acil",
    "category": "hospital",
    "city": "Trabzon",
    "district": "Ortahisar",
    "address": "Kaşüstü, Ortahisar, Trabzon",
    "phone": "182",
    "latitude": 40.9987,
    "longitude": 39.7974,
    "dutyDate": "7/24 acil servis",
    "sourceName": "Sağlık Bakanlığı",
    "sourceUrl": "https://www.saglik.gov.tr/",
    "lastUpdated": "2026-07-06T06:00:00.000Z"
  },
  {
    "id": "tra-belediye-1",
    "name": "TİSKİ Su Arıza Hizmeti",
    "category": "municipal",
    "city": "Trabzon",
    "district": "Ortahisar",
    "address": "Ortahisar, Trabzon",
    "phone": "185",
    "latitude": 41.0027,
    "longitude": 39.7168,
    "dutyDate": "7/24 çağrı hizmeti",
    "sourceName": "Trabzon Büyükşehir Belediyesi",
    "sourceUrl": "https://www.trabzon.bel.tr/",
    "lastUpdated": "2026-07-06T06:00:00.000Z"
  },
  {
    "id": "diy-eczane-1",
    "name": "Sur Örnek Nöbetçi Eczanesi",
    "category": "pharmacy",
    "city": "Diyarbakır",
    "district": "Sur",
    "address": "Sur, Diyarbakır",
    "phone": "0412 000 00 07",
    "latitude": 37.9144,
    "longitude": 40.2306,
    "dutyDate": "MVP örnek kaydı",
    "sourceName": "Örnek veri — resmi kaynaktan doğrulayın",
    "sourceUrl": "https://www.turkiye.gov.tr/",
    "lastUpdated": "2026-07-06T06:00:00.000Z"
  },
  {
    "id": "diy-acil-1",
    "name": "Diyarbakır AFAD İl Müdürlüğü",
    "category": "emergency",
    "city": "Diyarbakır",
    "district": "Bağlar",
    "address": "Bağlar, Diyarbakır",
    "phone": "112",
    "latitude": 37.91,
    "longitude": 40.205,
    "dutyDate": "7/24 acil koordinasyon",
    "sourceName": "AFAD",
    "sourceUrl": "https://www.afad.gov.tr/",
    "lastUpdated": "2026-07-06T06:00:00.000Z"
  },
  {
    "id": "erz-noter-1",
    "name": "Yakutiye Örnek Nöbetçi Noteri",
    "category": "notary",
    "city": "Erzurum",
    "district": "Yakutiye",
    "address": "Yakutiye, Erzurum",
    "phone": "0442 000 00 08",
    "latitude": 39.9043,
    "longitude": 41.2679,
    "dutyDate": "MVP örnek kaydı",
    "sourceName": "Örnek veri — TNB üzerinden doğrulayın",
    "sourceUrl": "https://www.tnb.org.tr/",
    "lastUpdated": "2026-07-06T06:00:00.000Z"
  },
  {
    "id": "erz-hastane-1",
    "name": "Erzurum Şehir Hastanesi Acil",
    "category": "hospital",
    "city": "Erzurum",
    "district": "Yakutiye",
    "address": "Yakutiye, Erzurum",
    "phone": "182",
    "latitude": 39.9096,
    "longitude": 41.2854,
    "dutyDate": "7/24 acil servis",
    "sourceName": "Sağlık Bakanlığı",
    "sourceUrl": "https://www.saglik.gov.tr/",
    "lastUpdated": "2026-07-06T06:00:00.000Z"
  }
]
